stop_id,stop_code,stop_name,stop_lat,stop_lon,zone_id
330330,22AGOST,22 de Agosto,-12.0205972,-77.0140913,0
325181,24JUN,24JUN,-12.005904,-77.014858,0
325221,24JUN2,24 DE JUNIO,-12.0059749,-77.0147172,0
3252211,24JUN22,24 DE JUNIO,-12.0059749,-77.0147172,0
330226,24JUN36,24 De Junio,-12.0102857,-77.0151996,0
330118,24JUN361,24 De Junio,-12.0102173,-77.0152115,0
330227,24JUN370,24 de Junio,-12.010131,-77.0150774,0
318033,28JUL1,28 DE JULIO,-12.073079,-77.015873,0
318047,28JUL2,28 DE JULIO,-12.0738276,-77.0146286,0
330342,2LLOMAS,LAS LOMAS,-12.0059163,-77.0233795,0
318110,2MAYO,2 DE MAYO,-12.0703868,-77.0145386,0
318111,2MAYO2,2 DE MAYO - SN,-12.0705257,-77.014449,0
330339,AAMANCAE,AMANCAES,-12.0133841,-77.0204121,0
330416,ABANC55,Abancay,-12.0154264,-77.044777,0
10315,ACHO,Acho,-12.0464,-77.0428,0
151154,ACHO22,ACHO,-12.0233796,-77.0122494,0
328114,ACHO32,ACHO,-12.0230581,-77.012032,0
318043,ACYRE2,LAS ACACIAS/REDUCTO,-12.0758379,-77.0124013,0
330391,AGUAR5,Aguarico,-12.0318601,-77.0302657,0
328202,AGUIL,Aguilar,-12.012595,-77.0136455,0
325230,AGUIL2,AGUILAR,-12.013432,-77.0142794,0
330111,ALAMDEC2,Alameda de Los Descalzos - SN,-12.0204988,-77.0130119,0
325203,ALCAZ1,ALCAZAR  -  NS,-12.015017,-77.014606,0
330221,ALCAZ11,Alcazar,-12.0142693,-77.0152111,0
325076,ALCAZ2,ALCAZAR,-12.015642,-77.014026,0
327164,ALCED2,ALCED2,-12.0506202,-77.0203541,0
330431,ALUGART5,Alfonso Ugarte,-12.0322799,-77.0233601,0
325001,AMANC1,AMANCAES,-12.012122,-77.021765,0
325010,AMANC11,AMANCAES,-12.013364,-77.020251,0
325079,AMANC2,Amancaes - SN,-12.013508,-77.020172,0
325231,AMNC11,Amancaes - NS,-12.0115758,-77.0147248,0
151184,ANCAS2,Ancash,-12.0464,-77.0428,0
500167,ANCASH,Ancash,-12.0464,-77.0428,0
151168,ANCASH1,Ancash - EO,-12.0247458,-77.0133949,0
500267,ANCASH5,Ancash,-12.0248458,-77.0133675,0
330415,ANDAH55,Andahuaylas,-12.0153033,-77.045862,0
318027,ANDAL1,ANDALUCIA,-12.0631208,-77.0150848,0
318159,ANGA,ANGA,-12.0464,-77.0428,0
318009,ANGA1,ANGAMOS,-12.0649327,-77.0213422,0
318014,ANGA2,ANGAMOS - SN,-12.0651102,-77.0212444,0
318029,ANGAM1,ANGAMOS,-12.064867,-77.014796,0
318052,ANGAM2,ANGAMOS,-12.065054,-77.014692,0
330229,ANSANCH,Anton Sanchez,-12.0149031,-77.0147909,0
327006,ANTPEZ1,ANTONIO PEZET - NS,-12.0610616,-77.0219438,0
318056,ARAMB2,ARAMBURU,-12.0614015,-77.015318,0
330369,ARAMBU22,ARAMBURÚ,-12.0613014,-77.0149458,0
325078,ARANC2,ARANCIBIA,-12.01386,-77.015786,0
325228,ARANC22,Arancibia - SN,-12.020276,-77.0217743,0
330397,ARGEN55,Argentina,-12.0241651,-77.0354817,0
330423,ARGEN758,Argentina,-12.0241017,-77.0355487,0
330427,ARICA55,Arica,-12.031786,-77.0326413,0
318035,ARMEN1,ARMENDARIZ/LARCOMAR,-12.075182,-77.014786,0
318044,ARMEN2,ARMENDARIZ/ACACIAS - SN,-12.0804711,-77.0132966,0
320228,ARNCIBI1,Arancibia,-12.0137178,-77.0200915,0
327058,ARONA2,JUAN DE ARONA,-12.05506,-77.0157,0
330336,ASANCHE2,ANTON SANCHEZ,-12.0149182,-77.0145658,0
500714,ATIRADO,Alejandro Tirado,-12.0428604,-77.0205108,0
318041,AVSOL2,AV. EL SOL,-12.08209,-77.010101,0
318028,AYACU1,AYACUCHO,-12.0641105,-77.0149188,0
318053,AYACU2,AYACUCHO,-12.064316,-77.014818,0
330220,BAGUILA,Barreda y Aguilar,-12.0133978,-77.0144189,0
318039,BALTA1,BALTA,-12.0830264,-77.0107781,0
327022,BAÑON1,M.BAÑON,-12.053934,-77.0159293,0
305011,BARRANQ2,BARRANQUILLA - SN,-12.040025,-77.0317738,0
318048,BENAV2,BENAVIDEZ,-12.073019,-77.01457,0
318113,BENTIN1,AMANCAES  -  NS (BENTIN),-12.013577,-77.020213,0
318012,BERL2,BERLIN - SN,-12.0464,-77.0428,0
318032,BERLI1,BERLIN,-12.0719196,-77.0151841,0
330359,BERLI36,BERLIN,-12.0711968,-77.0213531,0
301011,BOLIV1,BOLIVIA,-12.031901,-77.02182,0
301069,BOLIV2,BOLIVIA,-12.032282,-77.021705,0
305015,BREN2,BREÑA - SN,-12.033564,-77.023479,0
336141,CAGUA,CAGUA,-12.0464,-77.0428,0
33614141,CAGUA1,CA. RIMAC / TUNEL,-12.014159,-77.010954,0
330332,CAJAMAR,Cajamarca,-12.0224112,-77.0141938,0
330224,CAJAT361,Cajatambo,-12.0142145,-77.0140149,0
330228,CALE370,Las Calezas,-12.0143651,-77.0153631,0
325216,CALE62,LAS CALEZAS 306  -  SN,-12.014541,-77.015016,0
325077,CALEZ2,LAS CALEZAS,-12.014408,-77.015149,0
330117,CALL5,Calle 5,-12.0144484,-77.0142108,0
301072,CALLA2,CALLAO,-12.0237579,-77.0208081,0
325184,CALLE1,CALLE1,-12.01233,-77.015297,0
330376,CALLE11,Calle 1,-12.0122098,-77.0152025,0
330407,CALLE155,Calle 1,-12.0159171,-77.0546046,0
328102,CALLE2,Calle 2 - NS,-12.0123614,-77.015317,0
330103,CALLE3,CALLE 3,-12.0125763,-77.0154296,0
330403,CAMAN5,Camaná,-12.0152993,-77.0451157,0
314062,CANDAM62,M. CANDAMO,-12.0457947,-77.0204697,0
314019,CANDAMO,M.CANDAMO,-12.0455949,-77.0205658,0
314060,CASAN2,D. CASANOVA,-12.0523932,-77.0200949,0
305007,CASTVIR1,CASTROVIRREYNA - NS,-12.0355503,-77.031078,0
330356,CDEPORT,Complejo Deportivo,-12.0101114,-77.0150855,0
320227,CDOMINI,Condominio,-12.010282,-77.0231501,0
3202271,CDOMINI1,CONDOMINIOS,-12.010282,-77.0231501,0
318057,CENTE1,CENTENARIO,-12.0827179,-77.0120111,0
325179,CEREZ,CEREZ,-12.004167,-77.0157518,0
325223,CEREZ2,CEREZOS,-12.004201,-77.015704,0
330412,CHICLA55,Chiclayo,-12.0148731,-77.0536726,0
318042,CHIPO2,CHIPOCO,-12.08146,-77.012093,0
318038,CHIPOCO,CHIPOCO,-12.0815284,-77.0121281,0
325006,CHIRA1,CHIRA,-12.021115,-77.015124,0
325074,CHIRA2,CHIRA,-12.0213153,-77.0151496,0
327005,CHOQ1,CHOQUEHUANCA - NS,-12.0554746,-77.0213269,0
330353,CHOQUEH,Choquehuanca,-12.0557249,-77.021094,0
327024,CHOQUI1,CHOQUEHUANCA,-12.0557311,-77.0156554,0
330388,CHOTA5,Chota,-12.0315538,-77.0225501,0
325180,CLAVE,CLAVE,-12.004968,-77.015286,0
325222,CLAVE2,CLAVELES,-12.005008,-77.015246,0
325220,CLE102,CLE102,-12.01079,-77.014213,0
330374,COLEGI0,COLEGIO,-12.0149714,-77.0152889,0
330378,COLEGIO0,Colegio,-12.0150329,-77.015326,0
325002,COLON1,LA COLONIA,-12.014033,-77.015704,0
330383,COMISA0,Comisaria,-12.0036619,-77.0201622,0
500328,COMISAR9,Comisaria,-12.0132866,-77.0055158,0
327017,CONDMON2,CONDE DE LA MONCLOVA - SN,-12.0611305,-77.02127,0
330341,CONDOM77,CONDOMINIOS,-12.0103858,-77.0230947,0
301016,CUBA1,CUBA,-12.0427397,-77.0209949,0
330344,CUBA36,Cuba,-12.0427666,-77.0213829,0
330410,CUSCO55,Cusco,-12.0201752,-77.0546702,0
500187,CUZCO,Cuzco,-12.0464,-77.0428,0
500188,CUZCO2,Cuzco,-12.0306637,-77.0143273,0
301015,DAGNI1,R. DAGNINO,-12.0416205,-77.0211659,0
301066,DAGNI2,R. DAGNINO,-12.0417206,-77.0210784,0
330396,DANS5,Dansey,-12.025203,-77.0353809,0
327007,DASS1,DASSO - NS,-12.06233,-77.022215,0
305014,DONBOSC2,DON BOSCO - SN,-12.0337455,-77.0249142,0
330399,DUAREZ5,Duarez,-12.0211994,-77.0357823,0
325182,EDUAR1,EDUAR1,-12.011214,-77.0143,0
330343,EDUAR11,Eduardo Dibos,-12.0111835,-77.0143767,0
325219,ELSOL22,ELSOL22,-12.0117,-77.014678,0
301071,EMANC2,EMANCIPACION,-12.0248041,-77.0215133,0
325202,ENCAL1,ENCALADA  -  NS,-12.013541,-77.014249,0
330116,ENCALA1,Encalada,-12.0133366,-77.0142752,0
301012,ESPAÑ1,ESPAÑA,-12.0327,-77.021752,0
301068,ESPAÑ2,ESPAÑA,-12.0331543,-77.02164,0
301001,ESTCENT1,ESTACIÓN CENTRAL 1   -  NS,-12.0331124,-77.0210941,0
301017,EVILLAR,E.VILLAR,-12.0435357,-77.0208732,0
330340,FAMANCAE,AMANCAES,-12.0133707,-77.0203479,0
318046,FANIN2,J.FANNING,-12.0748983,-77.0147266,0
330408,FAUCET5,Faucett,-12.0218877,-77.0555849,0
301065,FERNAN2,E.FERNANDEZ,-12.0425194,-77.020955,0
330380,FERREY0,Ferreyros,-12.0113318,-77.0142816,0
325232,FIN24JUN,Final 24 De Junio,-12.0102312,-77.0145203,0
325177,FLOAM,FLOAM,-12.002714,-77.020942,0
330395,GAMEN5,Galdeano y Mendoza,-12.0253783,-77.0342894,0
330362,GRAU301,GRAU,-12.0708969,-77.0206288,0
325226,GREPU,Guardia Republicana,-12.0147089,-77.0208398,0
325005,GREPU1,G. REPUBLICANA,-12.020442,-77.014696,0
325075,GREPU2,G. REPUBLICANA,-12.0206436,-77.0147248,0
325229,GREPU22,Guardia Republicana - SN,-12.014917,-77.0209247,0
305012,GRLVAL2,GRAL. VALERA - SN,-12.0358912,-77.0308961,0
314020,GUIDO,TOMAS GUIDO,-12.051201,-77.020326,0
314061,GUIDO61,TOMAS GUIDO,-12.0514075,-77.0202342,0
330432,GVEGA5,Garcilaso de la Vega,-12.0321636,-77.021981,0
330365,GVIDAL2,GENERAL VIDAL,-12.0653003,-77.0142636,0
327057,HABAN2,LA HABANA,-12.0559849,-77.0155589,0
330370,HABAN22,LA HABANA,-12.0559107,-77.015182,0
301013,HCAYO1,HUANCAYO,-12.0341522,-77.0216238,0
301189,HUAN61,HUANCAVELICA,-12.0242468,-77.0212494,0
301144,HUANC1,HUANCAVELICA,-12.0238015,-77.0209384,0
330413,HUANC55,Huancayo,-12.0150153,-77.052404,0
330405,HUANCA5,Huancayo,-12.014939,-77.0521757,0
305008,HUANCAB1,HUANCABAMBA - NS,-12.0359589,-77.0318201,0
330430,HUARA55,Huaraz,-12.0323432,-77.02415,0
330119,HVILLAR,H. Villaran,-12.0109406,-77.0153096,0
330225,HVILLAR2,H. Villaran,-12.0109505,-77.0152483,0
325008,ICA1,ICA,-12.0238533,-77.0209737,0
330411,ICA778,Ica,-12.0150376,-77.0541107,0
301010,ILO1,ILO,-12.0306368,-77.0219511,0
330426,INO88,Ino,-12.0304234,-77.0317158,0
305003,IQUIQ1,IQUIQUE - NS,-12.0334389,-77.023635,0
330389,IQUIQ5,Iquique,-12.0316376,-77.0237021,0
330414,IQUIT45,Huancayo,-12.0151661,-77.0511864,0
330404,IQUIT55,Iquitos,-12.0151103,-77.0506371,0
330371,JARON22,JUAN DE ARONA,-12.0549636,-77.0153314,0
330390,JCHAV5,Jorge Chavez,-12.0317492,-77.0250143,0
330347,JOBERNA,Joaquin Bernal,-12.0512581,-77.0207165,0
314001,JOSLEAL1,JOSE LEAL - NS,-12.0504773,-77.0208479,0
500383,JPRADO99,Javier Prado,-12.0533219,-77.0155153,0
241165,JPUNO,Jiron Puno,-12.0311045,-77.014634,0
330335,JRATAHU,Jr. Atahualpa,-12.0216784,-77.0135854,0
327200,JVPRA,JVPRA,-12.053167,-77.020445,0
318026,LANGE1,LOS ANGELES,-12.062308,-77.015228,0
318034,LARCO1,LARCO,-12.0736386,-77.014728,0
325215,LEONCI15,ALCAZAR,-12.015682,-77.014084,0
325004,LEONCIO,LEONCIO PRADO,-12.015736,-77.014246,0
500415,LIMA9,Lima,-12.0130356,-77.0041605,0
5004151,LIMA99,Lima,-12.0130356,-77.0041605,0
330337,LLOMAS,Las Lomas,-12.0059967,-77.0233866,0
330366,LMONTER2,LIZARDO MONTERO,-12.0642106,-77.0144461,0
330360,LOALTOS,LOS ALTOS,-12.0049414,-77.0229706,0
330429,LORET55,Loreto,-12.0324548,-77.0255406,0
330333,LORETO,Loreto,-12.0233162,-77.0127836,0
500329,LOSA,La Losa,-12.0134612,-77.0110389,0
318037,LPARM1,ARMENDARIZ,-12.080645,-77.0131508,0
330346,LVELARD,Leon Velarde,-12.0455245,-77.0209724,0
325003,MADRI1,MADRID,-12.014595,-77.015081,0
330375,MADRID9,Madrid,-12.0145271,-77.015155,0
301027,MALI2,MALI - SN,-12.0335943,-77.0212839,0
328104,MANCINC1,Manco Inca - NS,-12.0200551,-77.0233381,0
330345,MAPINO,Manuel del Pino,-12.0442708,-77.0211536,0
330422,MATER55,Materiales,-12.0224266,-77.0357197,0
330348,MBAÑON1,Manuel Bañon,-12.0537882,-77.0205556,0
500258,MCANDA5,MANUEL CANDAMO,-12.0456539,-77.0200905,0
330385,MEXIC0,Mexico,-12.002736,-77.0210345,0
325225,MONAC,MONAC,-12.00274,-77.02092,0
330377,MONACO,MONACO,-12.0027281,-77.0210363,0
325175,MOQSJ2,MOQSJ2,-12.014584,-77.010156,0
325009,MOQUE1,MOQUEGUA,-12.0248847,-77.0216897,0
301171,MOQUE2,MOQUEGUA,-12.0252246,-77.0217984,0
301172,MOQUE2-1,MOQUE2,-12.0242212,-77.0211119,0
327025,MORAL1,R.MORALES,-12.060965,-77.015455,0
320230,MORAR1,MORRO DE ARICA,-12.0124653,-77.0214733,0
330358,MORAR11,MORRO DE ARICA,-12.0128628,-77.0210118,0
325022,MORAR2,MORRO ARICA  -  SN,-12.0464,-77.0428,0
305004,MUNIC1,MUNICIPALIDAD - NS,-12.033139,-77.0246463,0
330364,NCOLINA2,NARCISO DE LA COLINA,-12.070656,-77.014129,0
330433,NPIERO5,Nicolás de Piérola,-12.0258337,-77.0219957,0
301149,NSANC1,NSANC1,-12.0412396,-77.0212181,0
330393,NUNI5,Naciones Unidas,-12.0315221,-77.0340648,0
330424,NUNIDD,Naciones Unidas,-12.0253686,-77.0335456,0
318045,NUÑEZ2,NUÑEZ DE BALBOLA,-12.0759855,-77.0138867,0
330363,OFLO301,OVALO MIRAFLORES,-12.0709286,-77.01466,0
330352,OGUTIER,Ovalo Gutierrez,-12.0646505,-77.0212472,0
327059,OLAVI2,OLAVIDE,-12.053822,-77.015884,0
305005,OLMED1,OLMEDO - NS,-12.0335934,-77.0254282,0
318008,OVGUT1,OVALO GUTIERREZ,-12.0635595,-77.0214796,0
318015,OVGUT2,OVALO GUTIERREZ - SN,-12.0464,-77.0428,0
327016,PARDALI2,PARDO Y ALIAGA - SN,-12.0627103,-77.0213318,0
318031,PARDO1,PARDO/R.PALMA,-12.070728,-77.0144821,0
330350,PARDO36,Pardo,-12.0707502,-77.0213414,0
330351,PARDO62,PARDO,-12.0706381,-77.0212729,0
330379,PARQUE0,Parque,-12.012033,-77.0149757,0
328201,PARQUE1,Parque - NS,-12.0104485,-77.0154636,0
328110,PARQZON1,Parque Zonal - NS,-12.0057812,-77.0143835,0
325224,PASAJE,PASAJE,-12.003348,-77.020409,0
327023,PAZSO1,PAZ SOLDAN,-12.05478,-77.015812,0
330361,PBERMUD,P. BERMUDEZ,-12.0419034,-77.0215126,0
330357,PCONDE2,PEDRO CONDE,-12.0518748,-77.0201396,0
302,PCTA_A,Punto de entrada de Patio CTA,-12.0121709,-77.0216321,0
301,PCTA_E,Punto de salida de Patio CTA,-12.0121155,-77.0217002,0
312,PCTA2_A,Punto de entrada de Patio CTA2,-12.0138071,-77.0237702,0
311,PCTA2_E,Punto de salida de Patio CTA2,-12.0138071,-77.0237702,0
330387,PCTA-P1,Patio 1,-12.0137654,-77.0236506,0
330400,PERU55,Peru,-12.0157,-77.0353514,0
330398,PGAREZ5,Pedro Garezón,-12.0228878,-77.0356311,0
325214,PI3062,PIZARRO 306  -  SN,-12.021817,-77.015466,0
301145,PIERO1,PIERO1,-12.0253664,-77.0220216,0
327203,PIERO6,NICOLAS DE PIEROLA,-12.0254326,-77.0220652,0
500222,PIEROLA,Nicolas de Pierola,-12.0315522,-77.0148719,0
318030,PIURA,PIURA,-12.065656,-77.01466,0
318051,PIURA2,PIURA,-12.06585,-77.014555,0
325173,PIZA32,PIZA32,-12.0215068,-77.0152824,0
325143,PIZAR1,PIZARRO,-12.022195,-77.01583,0
325227,PIZAR11,Pizarro - NS,-12.0158699,-77.0217596,0
325073,PIZAR2,PIZARRO,-12.022098,-77.015639,0
301002,PLBOL1,PLAZA BOLOGNESI - NS,-12.0336062,-77.0226466,0
605009,PLZBAN,PLAZA DE LA BANDERA,-12.0402041,-77.0337303,0
605010,PLZBAN2,PLAZA DE LA BANDERA - SN,-12.0402772,-77.0335208,0
305009,PLZBAND,PLAZA DE LA BANDERA,-12.0402041,-77.0337303,0
305010,PLZBAND2,PLAZA DE LA BANDERA - SN,-12.0402772,-77.0335208,0
318040,PLZBU1,PLAZA BUTTERS,-12.08344,-77.005947,0
330334,PLZVEA,Plaza Vea,-12.0230576,-77.0120813,0
330420,PRIOS55,Pinar Del Rio,-12.0159329,-77.0354238,0
328103,PROC1,Los Proceres - NS,-12.0204049,-77.0221901,0
500337,PROCER12,Proceres,-12.0142837,-77.0042849,0
320229,PROLTA2,Prolongacion Tacna,-12.0155444,-77.0138818,0
328111,PROLTAC1,Prolongación Tacna - NS,-12.015353,-77.0142236,0
330112,PROLTAC2,PROLONGACION TACNA,-12.0157094,-77.0136872,0
325178,PSJ171,PASAJE 17,-12.003344,-77.020445,0
330354,PSOLD5,PAZ SOLDAN,-12.0548639,-77.0208312,0
330349,PSOLDAN,Paz Soldan,-12.054616,-77.020826,0
325233,PTCTA,Patio CTA,-12.0121443,-77.0216235,0
330421,PTUDEL55,Pérez de Tudela,-12.0208441,-77.0357996,0
330381,PZONAL0,Parque Zonal,-12.0053672,-77.0150873,0
301070,QUILC2,QUILCA,-12.03045,-77.021914,0
330409,QUILC55,Quilca,-12.0211832,-77.0556342,0
330373,RDAGN22,RAMÓN DAGNINO,-12.0418012,-77.0206709,0
305006,RESTAUR,RESTAURACION,-12.0344387,-77.0301455,0
305013,RESTAUR2,RESTAURACIÓN - SN,-12.0350052,-77.0259722,0
327152,RISSO,RISSO,-12.0506688,-77.0204088,0
314204,RISSO2,RISSO  -  SN,-12.0506029,-77.0203581,0
314022,RISSO22,RISSO - SN,-12.0508176,-77.0159211,0
318055,RJANE2,RIO DE JANEIRO,-12.06212,-77.015192,0
330368,RJANE22,RÍO DE JANEIRO,-12.0620074,-77.0148205,0
330382,ROBLES0,Los Robles,-12.004568,-77.0154725,0
318050,RPALM2,R. PALMA,-12.0712414,-77.0144159,0
325201,SACHO1,SANTOS CHOCANO   -  NS,-12.012711,-77.013668,0
325204,SACHO2,SANTOS CHOCANO   -  SN,-12.013246,-77.014434,0
330355,SACOLIV3,Saco Oliveros,-12.0406762,-77.0208365,0
330384,SALAMA0,SALAMANCA,-12.0031158,-77.020622,0
330406,SALAV55,Salavaerry,-12.0147791,-77.05375,0
330367,SALAVE2,SALAVERRY,-12.0634744,-77.01457,0
330418,SALVAD55,San Salvador,-12.0155031,-77.0413098,0
330401,SANTOD5,Santo Domingo,-12.0154055,-77.041537,0
318049,SCHEL2,SCHELL,-12.072334,-77.014498,0
301014,SCOOL,SACO OLIVEROS,-12.0404076,-77.0213492,0
301099,SCOOL66,Saco Oliveros - SN,-12.040569,-77.021719,0
301067,SCOOL67,SACO OLIVEROS,-12.0407053,-77.0212387,0
330331,SECHUR,Sechura,-12.0217646,-77.0144396,0
301018,SEGURA,M.SEGURA,-12.0446031,-77.0207098,0
500259,SEGURA5,MANUEL SEGURA,-12.0446596,-77.0202266,0
301063,SEGURA63,M. SEGURA,-12.0447658,-77.0206263,0
318036,SILOY1,S.I. LOYOLA,-12.075934,-77.014055,0
327021,SOLED1,SOLEDAD,-12.052551,-77.020136,0
330419,STFE55,Santa Fé,-12.0155402,-77.0400408,0
330115,TARMAC,Tarma,-12.0339738,-77.0216505,0
330372,TCARD22,TEODORO CÁRDENAS,-12.0440386,-77.0203278,0
318054,TENAU2,CARLOS TENAUD,-12.0633084,-77.0149933,0
318156,TERUE,TERUE,-12.062689,-77.015156,0
318160,TERUE2,TERUEL  -  SN,-12.063056,-77.015034,0
330392,TMARI5,Tingo María,-12.0319771,-77.0325502,0
330113,TOMEDIS2,Tomás Edison - SN,-12.0102796,-77.0139058,0
314021,TORUGAR2,TORRE UGARTE - SN,-12.0520672,-77.0157451,0
328112,TRUJI1,Trujillo - NS,-12.0233328,-77.0143054,0
330386,TUGA305,Torre Ugarte,-12.0522056,-77.0201133,0
500244,UCAYALI,Ucayali,-12.025877,-77.013986,0
500245,UCAYALI2,Ucayali,-12.0259677,-77.0139546,0
301170,URUGU2,URUGU2,-12.031656,-77.021748,0
325183,VALDE1,VALDE1,-12.011571,-77.014645,0
330102,VIDAL2,Gral Vidal - SN,-12.020415,-77.022278,0
301064,VILLA2,E. VILLAR,-12.043733,-77.0207822,0
330417,VILLAR45,Villa Rica,-12.0155114,-77.0429273,0
330402,VILLAR55,Villa Rica,-12.0154196,-77.0426177,0
330223,VIRRE361,LOS VIRREYES,-12.0145649,-77.0143146,0
328203,VIRREY1,Los Virreyes,-12.014512,-77.0143871,0
3282031,VIRREY11,LOS VIRREYES,-12.014512,-77.0143871,0
325007,VIRU1,VIRU,-12.022227,-77.015848,0
301146,VLRAN1,VLRAN1,-12.0310901,-77.021896,0
301026,WASHING2,WASHINGTON - SN,-12.033681,-77.022225,0
330428,YURUAS,Yurua,-12.0314713,-77.0300544,0
330425,ZORR88,Zorritos,-12.0255939,-77.0325949,0
330394,ZORRI5,Zorritos,-12.0256576,-77.0333916,0
